[{"name": "S Adlershof", "lat": 52.434910200000004, "lon": 13.541277650000001}, {"name": "S Ahrensfelde", "lat": 52.57128935, "lon": 13.56560525}, {"name": "S Alexanderplatz", "lat": 52.52149875, "lon": 13.41138005}, {"name": "S Alt-Reinickendorf", "lat": 52.5778107, "lon": 13.3507735}, {"name": "S Altglienicke", "lat": 52.4071183, "lon": 13.5584947}, {"name": "S Anhalter Bahnhof", "lat": 52.50341, "lon": 13.381445399999999}, {"name": "S Attilastraße", "lat": 52.4480014, "lon": 13.3607718}, {"name": "S Babelsberg", "lat": 52.3913838, "lon": 13.0927374}, {"name": "S Baumschulenweg", "lat": 52.4675198, "lon": 13.489730366666668}, {"name": "S Bellevue", "lat": 52.5199939, "lon": 13.34789595}, {"name": "S Bergfelde", "lat": 52.67013045, "lon": 13.320359750000001}, {"name": "S Bernau", "lat": 52.67554905, "lon": 13.591688399999999}, {"name": "S Bernau-Friedenstal", "lat": 52.668439199999995, "lon": 13.5649273}, {"name": "S Betriebsbahnhof Rummelsburg", "lat": 52.493890199999996, "lon": 13.49763555}, {"name": "S Beusselstraße", "lat": 52.53434325, "lon": 13.32905855}, {"name": "S Biesdorf", "lat": 52.5130834, "lon": 13.55606675}, {"name": "S Birkenstein", "lat": 52.5156429, "lon": 13.64734465}, {"name": "S Birkenwerder", "lat": 52.688423400000005, "lon": 13.2887321}, {"name": "S Blankenburg", "lat": 52.59134645, "lon": 13.443349099999999}, {"name": "S Blankenfelde (Teltow-Fläming)", "lat": 52.3367843, "lon": 13.4159333}, {"name": "S Borgsdorf", "lat": 52.71572655, "lon": 13.27630205}, {"name": "S Bornholmer Straße", "lat": 52.5547566, "lon": 13.397845825000001}, {"name": "S Botanischer Garten", "lat": 52.4480224, "lon": 13.30731935}, {"name": "S Brandenburger Tor", "lat": 52.5164415, "lon": 13.3818418}, {"name": "S Buch", "lat": 52.635872, "lon": 13.491698849999999}, {"name": "S Buckower Chaussee", "lat": 52.41033075, "lon": 13.3828786}, {"name": "S Bundesplatz", "lat": 52.477647399999995, "lon": 13.329208900000001}, {"name": "S Charlottenburg", "lat": 52.5050505, "lon": 13.304501649999999}, {"name": "S Eichborndamm", "lat": 52.5776678, "lon": 13.3165114}, {"name": "S Eichwalde", "lat": 52.37133095, "lon": 13.615325649999999}, {"name": "S Erkner", "lat": 52.4294491, "lon": 13.7509482}, {"name": "S Feuerbachstraße", "lat": 52.4638273, "lon": 13.332884}, {"name": "S Flughafen BER", "lat": 52.364612550000004, "lon": 13.509652800000001}, {"name": "S Frankfurter Allee", "lat": 52.51511885, "lon": 13.47447115}, {"name": "S Fredersdorf (bei Berlin)", "lat": 52.52624315, "lon": 13.76043095}, {"name": "S Friedenau", "lat": 52.47074445, "lon": 13.3415193}, {"name": "S Friedrichsfelde Ost", "lat": 52.514119949999994, "lon": 13.519889299999999}, {"name": "S Friedrichshagen", "lat": 52.45736515, "lon": 13.623738150000001}, {"name": "S Friedrichstraße", "lat": 52.52041385, "lon": 13.386750575}, {"name": "S Frohnau", "lat": 52.6323218, "lon": 13.29033155}, {"name": "S Gehrenseestraße", "lat": 52.55646405, "lon": 13.524742799999999}, {"name": "S Gesundbrunnen", "lat": 52.5491733, "lon": 13.38985505}, {"name": "S Greifswalder Straße", "lat": 52.54013475, "lon": 13.439230649999999}, {"name": "S Griebnitzsee", "lat": 52.3944392, "lon": 13.1271906}, {"name": "S Grunewald", "lat": 52.4884493, "lon": 13.261407049999999}, {"name": "S Grünau", "lat": 52.41255615, "lon": 13.57417895}, {"name": "S Grünbergallee", "lat": 52.3992956, "lon": 13.54183375}, {"name": "S Hackescher Markt", "lat": 52.52264805, "lon": 13.402208850000001}, {"name": "S Halensee", "lat": 52.495984050000004, "lon": 13.29059615}, {"name": "S Hauptbahnhof", "lat": 52.52522845, "lon": 13.36961535}, {"name": "S Heerstraße", "lat": 52.50773485, "lon": 13.2601798}, {"name": "S Hegermühle", "lat": 52.5485461, "lon": 13.8665454}, {"name": "S Heidelberger Platz", "lat": 52.48026505, "lon": 13.3114891}, {"name": "S Heiligensee", "lat": 52.6246345, "lon": 13.22924065}, {"name": "S Hennigsdorf (bei Berlin)", "lat": 52.6374943, "lon": 13.20604645}, {"name": "S Hermannstraße", "lat": 52.4675893, "lon": 13.4309035}, {"name": "S Hermsdorf", "lat": 52.61734175, "lon": 13.30764855}, {"name": "S Hirschgarten", "lat": 52.45790035, "lon": 13.6034792}, {"name": "S Hohen Neuendorf (b Berlin)", "lat": 52.66865285, "lon": 13.287049150000001}, {"name": "S Hohenschönhausen", "lat": 52.56626785, "lon": 13.5125232}, {"name": "S Hohenzollerndamm", "lat": 52.4886703, "lon": 13.3001817}, {"name": "S Hoppegarten (Mark)", "lat": 52.518194050000005, "lon": 13.6739064}, {"name": "S Humboldthain", "lat": 52.54502545, "lon": 13.37954645}, {"name": "S Innsbrucker Platz", "lat": 52.4781064, "lon": 13.3415916}, {"name": "S Jannowitzbrücke", "lat": 52.514236999999994, "lon": 13.419461550000001}, {"name": "S Johannisthal", "lat": 52.4468117, "lon": 13.52386315}, {"name": "S Julius-Leber-Brücke", "lat": 52.48643705, "lon": 13.3610853}, {"name": "S Jungfernheide", "lat": 52.53046895, "lon": 13.29977495}, {"name": "S Karl-Bonhoeffer-Nervenklinik", "lat": 52.5780444, "lon": 13.3291599}, {"name": "S Karlshorst", "lat": 52.4805188, "lon": 13.527187600000001}, {"name": "S Karow", "lat": 52.615222, "lon": 13.4694733}, {"name": "S Kaulsdorf", "lat": 52.51211465, "lon": 13.5901827}, {"name": "S Köllnische Heide", "lat": 52.4697151, "lon": 13.4685462}, {"name": "S Königs Wusterhausen", "lat": 52.2964446, "lon": 13.6314376}, {"name": "S Köpenick", "lat": 52.4586081, "lon": 13.5813132}, {"name": "S Landsberger Allee", "lat": 52.52944945, "lon": 13.45481325}, {"name": "S Lankwitz", "lat": 52.4388305, "lon": 13.3421759}, {"name": "S Lehnitz", "lat": 52.74099125, "lon": 13.2635521}, {"name": "S Lichtenberg", "lat": 52.510280699999996, "lon": 13.49792575}, {"name": "S Lichtenrade", "lat": 52.3868303, "lon": 13.3964093}, {"name": "S Lichterfelde Ost", "lat": 52.4301617, "lon": 13.32851845}, {"name": "S Lichterfelde Süd", "lat": 52.4101528, "lon": 13.30863855}, {"name": "S Lichterfelde West", "lat": 52.4432202, "lon": 13.29333995}, {"name": "S Mahlow", "lat": 52.36094185, "lon": 13.407737699999998}, {"name": "S Mahlsdorf", "lat": 52.5120017, "lon": 13.609422550000001}, {"name": "S Marienfelde", "lat": 52.42431635, "lon": 13.37461025}, {"name": "S Marzahn", "lat": 52.5437293, "lon": 13.54141215}, {"name": "S Mehrower Allee", "lat": 52.55760925, "lon": 13.55351155}, {"name": "S Messe Nord/ZOB", "lat": 52.5077427, "lon": 13.28349775}, {"name": "S Messe Süd (Eichkamp)", "lat": 52.4985851, "lon": 13.2705619}, {"name": "S Mexikoplatz", "lat": 52.4366979, "lon": 13.2333543}, {"name": "S Mühlenbeck-Mönchmühle", "lat": 52.6548389, "lon": 13.3860512}, {"name": "S Neuenhagen", "lat": 52.5207682, "lon": 13.7005519}, {"name": "S Neukölln", "lat": 52.469463250000004, "lon": 13.4433396}, {"name": "S Nikolassee", "lat": 52.43214975, "lon": 13.19385045}, {"name": "S Nordbahnhof", "lat": 52.5326503, "lon": 13.387217849999999}, {"name": "S Nöldnerplatz", "lat": 52.503871849999996, "lon": 13.48536585}, {"name": "S Oberspree", "lat": 52.452419199999994, "lon": 13.5377561}, {"name": "S Olympiastadion", "lat": 52.511281350000004, "lon": 13.24297555}, {"name": "S Oranienburg", "lat": 52.7538009, "lon": 13.2491709}, {"name": "S Oranienburger Straße", "lat": 52.52540705, "lon": 13.393094000000001}, {"name": "S Osdorfer Straße", "lat": 52.418955749999995, "lon": 13.31431255}, {"name": "S Ostbahnhof", "lat": 52.510719025, "lon": 13.435202675}, {"name": "S Ostkreuz", "lat": 52.503259633333336, "lon": 13.468996283333333}, {"name": "S Pankow", "lat": 52.56589005, "lon": 13.4096567}, {"name": "S Pankow-Heinersdorf", "lat": 52.57796365, "lon": 13.429412150000001}, {"name": "S Petershagen Nord", "lat": 52.5288646, "lon": 13.7892237}, {"name": "S Pichelsberg", "lat": 52.510135250000005, "lon": 13.227643950000001}, {"name": "S Plänterwald", "lat": 52.478480950000005, "lon": 13.4733592}, {"name": "S Poelchaustraße", "lat": 52.535702900000004, "lon": 13.5355025}, {"name": "S Potsdam Hauptbahnhof", "lat": 52.39180185, "lon": 13.0670721}, {"name": "S Potsdamer Platz", "lat": 52.50955385, "lon": 13.37665045}, {"name": "S Prenzlauer Allee", "lat": 52.54492325, "lon": 13.42565575}, {"name": "S Priesterweg", "lat": 52.45991485, "lon": 13.356254075}, {"name": "S Rahnsdorf", "lat": 52.4516281, "lon": 13.6900102}, {"name": "S Raoul-Wallenberg-Straße", "lat": 52.5506843, "lon": 13.547537049999999}, {"name": "S Rathaus Steglitz", "lat": 52.4553438, "lon": 13.322296099999999}, {"name": "S Rummelsburg", "lat": 52.501242149999996, "lon": 13.47849095}, {"name": "S Röntgental", "lat": 52.6486244, "lon": 13.5133191}, {"name": "S Savignyplatz", "lat": 52.50516655, "lon": 13.3189832}, {"name": "S Schichauweg", "lat": 52.398898200000005, "lon": 13.3891849}, {"name": "S Schlachtensee", "lat": 52.4401004, "lon": 13.21544745}, {"name": "S Schulzendorf", "lat": 52.6129562, "lon": 13.2460901}, {"name": "S Schöneberg", "lat": 52.479292075000004, "lon": 13.351767025000001}, {"name": "S Schönefeld", "lat": 52.39092145, "lon": 13.51306435}, {"name": "S Schöneweide", "lat": 52.455005875, "lon": 13.509606250000001}, {"name": "S Schönfließ", "lat": 52.6646714, "lon": 13.34015015}, {"name": "S Schönhauser Allee", "lat": 52.54924145, "lon": 13.415215499999999}, {"name": "S Schönholz", "lat": 52.57128505, "lon": 13.381351500000001}, {"name": "S Sonnenallee", "lat": 52.4729486, "lon": 13.455617}, {"name": "S Spandau", "lat": 52.534770300000005, "lon": 13.1974212}, {"name": "S Spindlersfeld", "lat": 52.4469147, "lon": 13.5614712}, {"name": "S Springpfuhl", "lat": 52.5270732, "lon": 13.53654785}, {"name": "S Storkower Straße", "lat": 52.5237631, "lon": 13.4649282}, {"name": "S Strausberg", "lat": 52.5321992, "lon": 13.8329942}, {"name": "S Strausberg Nord", "lat": 52.5903172, "lon": 13.9084343}, {"name": "S Strausberg Stadt", "lat": 52.5766368, "lon": 13.8879547}, {"name": "S Stresow", "lat": 52.5319677, "lon": 13.2091379}, {"name": "S Sundgauer Straße", "lat": 52.4363946, "lon": 13.27404955}, {"name": "S Südende", "lat": 52.44827495, "lon": 13.3537651}, {"name": "S Südkreuz", "lat": 52.475880000000004, "lon": 13.36523795}, {"name": "S Tegel", "lat": 52.588113500000006, "lon": 13.28976065}, {"name": "S Teltow Stadt", "lat": 52.396956599999996, "lon": 13.27685595}, {"name": "S Tempelhof", "lat": 52.471029400000006, "lon": 13.3841471}, {"name": "S Tiergarten", "lat": 52.51412715, "lon": 13.336327149999999}, {"name": "S Treptower Park", "lat": 52.49381485, "lon": 13.461793100000001}, {"name": "S Waidmannslust", "lat": 52.6062749, "lon": 13.321175400000001}, {"name": "S Wannsee", "lat": 52.4211081, "lon": 13.179253675}, {"name": "S Warschauer Straße", "lat": 52.506260624999996, "lon": 13.4507695}, {"name": "S Wartenberg", "lat": 52.573002200000005, "lon": 13.50380285}, {"name": "S Waßmannsdorf", "lat": 52.3682823, "lon": 13.4634353}, {"name": "S Wedding", "lat": 52.5430038, "lon": 13.3674912}, {"name": "S Westend", "lat": 52.518388650000006, "lon": 13.2843065}, {"name": "S Westhafen", "lat": 52.536245, "lon": 13.344125349999999}, {"name": "S Westkreuz", "lat": 52.50082628333333, "lon": 13.283938466666667}, {"name": "S Wildau", "lat": 52.3192073, "lon": 13.63374005}, {"name": "S Wilhelmshagen", "lat": 52.43851225, "lon": 13.7223351}, {"name": "S Wilhelmsruh", "lat": 52.5817039, "lon": 13.3622095}, {"name": "S Wittenau", "lat": 52.5970389, "lon": 13.3342675}, {"name": "S Wollankstraße", "lat": 52.5648374, "lon": 13.3927639}, {"name": "S Wuhletal", "lat": 52.512616699999995, "lon": 13.575102900000001}, {"name": "S Wuhlheide", "lat": 52.4686083, "lon": 13.55423315}, {"name": "S Yorckstraße", "lat": 52.491585900000004, "lon": 13.3721012}, {"name": "S Yorckstraße (Großgörschenstraße)", "lat": 52.492239600000005, "lon": 13.36780275}, {"name": "S Zehlendorf", "lat": 52.43100235, "lon": 13.2583253}, {"name": "S Zepernick (bei Bernau)", "lat": 52.6597406, "lon": 13.53397055}, {"name": "S Zeuthen", "lat": 52.348572649999994, "lon": 13.62754605}, {"name": "S Zoologischer Garten", "lat": 52.5069058, "lon": 13.33167145}]